{
  "type": "FeatureCollection",
  "features": [
    {
      "type": "Feature",
      "properties": {
        "ServiceName": "Rowan School",
        "marker-color": "#cac9ca",
        "marker-size": "small",
        "marker-symbol": "circle"
      },
      "geometry": {
        "coordinates": [
          -0.98723,
          51.49487
        ],
        "type": "Point"
      },
      "id": 0
    },
    {
      "type": "Feature",
      "properties": {
        "ServiceName": "Vincent House School",
        "marker-color": "#cac9ca",
        "marker-size": "small",
        "marker-symbol": "circle"
      },
      "geometry": {
        "coordinates": [
          -0.3278712820507792,
          51.07185452944029
        ],
        "type": "Point"
      },
      "id": 1
    },
    {
      "type": "Feature",
      "properties": {
        "ServiceName": "Boveridge College and Beeches School",
        "marker-color": "#cac9ca",
        "marker-size": "small",
        "marker-symbol": "circle"
      },
      "geometry": {
        "coordinates": [
          -1.901996,
          50.932232
        ],
        "type": "Point"
      },
      "id": 2
    },
    {
      "type": "Feature",
      "properties": {
        "ServiceName": "Hedgeway School",
        "marker-color": "#cac9ca",
        "marker-size": "small",
        "marker-symbol": "circle"
      },
      "geometry": {
        "coordinates": [
          -2.62097,
          51.56205
        ],
        "type": "Point"
      },
      "id": 3
    },
    {
      "type": "Feature",
      "properties": {
        "ServiceName": "Hyde Lodge",
        "marker-color": "#cac9ca",
        "marker-size": "small",
        "marker-symbol": "circle"
      },
      "geometry": {
        "coordinates": [
          -2.61421,
          51.47664
        ],
        "type": "Point"
      },
      "id": 4
    },
    {
      "type": "Feature",
      "properties": {
        "ServiceName": "Severnside School",
        "marker-color": "#cac9ca",
        "marker-size": "small",
        "marker-symbol": "circle"
      },
      "geometry": {
        "coordinates": [
          -2.49963,
          51.690655
        ],
        "type": "Point"
      },
      "id": 5
    },
    {
      "type": "Feature",
      "properties": {
        "ServiceName": "Wilden View School",
        "marker-color": "#cac9ca",
        "marker-size": "small",
        "marker-symbol": "circle"
      },
      "geometry": {
        "coordinates": [
          -2.229284,
          52.347662
        ],
        "type": "Point"
      },
      "id": 6
    },
    {
      "type": "Feature",
      "properties": {
        "ServiceName": "Central",
        "marker-color": "#cac9ca",
        "marker-size": "small",
        "marker-symbol": "circle"
      },
      "geometry": {
        "coordinates": [
          -2.229927,
          51.895523
        ],
        "type": "Point"
      },
      "id": 7
    },
    {
      "type": "Feature",
      "properties": {
        "ServiceName": "Poppyfield School",
        "marker-color": "#cac9ca",
        "marker-size": "small",
        "marker-symbol": "circle"
      },
      "geometry": {
        "coordinates": [
          -0.398084,
          51.273398
        ],
        "type": "Point"
      },
      "id": 8
    },
    {
      "type": "Feature",
      "properties": {
        "ServiceName": "Eccles and White House School",
        "marker-color": "#cac9ca",
        "marker-size": "small",
        "marker-symbol": "circle"
      },
      "geometry": {
        "coordinates": [
          0.973397,
          52.461118
        ],
        "type": "Point"
      },
      "id": 9
    },
    {
      "type": "Feature",
      "properties": {
        "ServiceName": "Fairway School",
        "marker-color": "#cac9ca",
        "marker-size": "small",
        "marker-symbol": "circle"
      },
      "geometry": {
        "coordinates": [
          -0.086559,
          52.330624
        ],
        "type": "Point"
      },
      "id": 10
    },
    {
      "type": "Feature",
      "properties": {
        "ServiceName": "Brooklands School",
        "marker-color": "#cac9ca",
        "marker-size": "small",
        "marker-symbol": "circle"
      },
      "geometry": {
        "coordinates": [
          -2.741641,
          53.697063
        ],
        "type": "Point"
      },
      "id": 1
    },
    {
      "type": "Feature",
      "properties": {
        "ServiceName": "Keyes Barn School",
        "marker-color": "#cac9ca",
        "marker-size": "small",
        "marker-symbol": "circle"
      },
      "geometry": {
        "coordinates": [
          -2.817171,
          53.778185
        ],
        "type": "Point"
      },
      "id": 12
    },
    {
      "type": "Feature",
      "properties": {
        "ServiceName": "Redehall School",
        "marker-color": "#cac9ca",
        "marker-size": "small",
        "marker-symbol": "circle"
      },
      "geometry": {
        "coordinates": [
          -0.114551,
          51.167374
        ],
        "type": "Point"
      },
      "id": 13
    },
    {
      "type": "Feature",
      "properties": {
        "ServiceName": "Meldreth and Orchard",
        "marker-color": "#cac9ca",
        "marker-size": "small",
        "marker-symbol": "circle"
      },
      "geometry": {
        "coordinates": [
          0.004398,
          52.098454
        ],
        "type": "Point"
      },
      "id": 14
    },
    {
      "type": "Feature",
      "properties": {
        "ServiceName": "Summerfields School",
        "marker-color": "#cac9ca",
        "marker-color": "#a0d1ff",
        "marker-size": "small",
        "marker-symbol": "circle"
      },
      "geometry": {
        "coordinates": [
          -2.217069,
          53.336742
        ],
        "type": "Point"
      },
      "id": 15
    },
    {
      "type": "Feature",
      "properties": {
        "ServiceName": "Hanley School",
        "marker-color": "#cac9ca",
        "marker-size": "small",
        "marker-symbol": "circle"
      },
      "geometry": {
        "coordinates": [
          -2.135085,
          53.02732
        ],
        "type": "Point"
      },
      "id": 16
    },
    {
      "type": "Feature",
      "properties": {
        "ServiceName": "Aurora Foxes",
        "marker-color": "#cac9ca",
        "marker-size": "small",
        "marker-symbol": "circle"
      },
      "geometry": {
        "coordinates": [
          -3.479061,
          51.203744
        ],
        "type": "Point"
      },
      "id": 17
    },
    {
      "type": "Feature",
      "properties": {
        "ServiceName": "Ivy Lane School",
        "marker-color": "#cac9ca",
        "marker-size": "small",
        "marker-symbol": "circle"
      },
      "geometry": {
        "coordinates": [
          -1.48274,
          53.689984
        ],
        "type": "Point"
      },
      "id": 18
    },
    {
      "type": "Feature",
      "properties": {
        "ServiceName": "Cedars School",
        "marker-color": "#cac9ca",
        "marker-size": "small",
        "marker-symbol": "circle"
      },
      "geometry": {
        "coordinates": [
          -2.167671,
          52.586148
        ],
        "type": "Point"
      },
      "id": 1
    },
    {
      "type": "Feature",
      "properties": {
        "ServiceName": "Chaldon View School",
        "marker-color": "#cac9ca",
        "marker-size": "small",
        "marker-symbol": "circle"
      },
      "geometry": {
        "coordinates": [
          -0.13404199905357927,
          51.267354504507864
        ],
        "type": "Point"
      },
      "id": 20
    },
    {
      "type": "Feature",
      "properties": {
        "ServiceName": "Fairway School",
        "marker-color": "#cac9ca",
        "marker-size": "small",
        "marker-symbol": "circle"
      },
      "geometry": {
        "coordinates": [
          -2.4648667251130973,
          53.67973360801818
        ],
        "type": "Point"
      },
      "id": 21
    },
    {
      "type": "Feature",
      "properties": {
        "ServiceName": "Ryefields School",
        "marker-color": "#cac9ca",
        "marker-size": "small",
        "marker-symbol": "circle"
      },
      "geometry": {
        "coordinates": [
          -1.4854025223905865,
          52.92876935845311
        ],
        "type": "Point"
      },
      "id": 22
    },
    {
      "type": "Feature",
      "properties": {
        "ServiceName": "Caterham School",
        "marker-color": "#cac9ca",
        "marker-size": "small",
        "marker-symbol": "circle"
      },
      "geometry": {
        "coordinates": [
          -0.09772923443412651,
          51.288755300155856
        ],
        "type": "Point"
      },
      "id": 23
    }
  ]
}
